{
  "modelId": "dz1207",
  "siteId": "dz1207",
  "siteName": "三段堤坝实景模型",
  "anchor": {
    "lng": 118.895612080632,
    "lat": 32.2299032894952,
    "height": 11.3296200998407,
    "coordType": "WGS84"
  },
  "siteFrame": {
    "origin": {
      "lng": 118.895612080632,
      "lat": 32.2299032894952,
      "height": 11.3296200998407,
      "coordType": "WGS84"
    },
    "axes": "enu",
    "heightDatum": "unspecified"
  },
  "yaw": 0,
  "scale": 1,
  "registration": {
    "mode": "rigid-ground-plane",
    "minControlPoints": 3
  },
  "markerCalibration": {
    "maxSelfCheckErrorMeters": 0.2,
    "solveMode": "ground-plane-2d",
    "note": "Road and white-marker corners imported from 标注(1).kml."
  },
  "modelControlPointOrder": [
    "road-1",
    "road-4",
    "road-3",
    "road-2"
  ],
  "modelControlPointCornerOrder": [
    "leftTop",
    "rightTop",
    "rightBottom",
    "leftBottom"
  ],
  "controlPoints": {
    "road-1": {
      "name": "路面角点 1",
      "cornerRole": "leftTop",
      "modelLocal": {
        "x": 145.4889,
        "y": -69.9432,
        "z": -0.2798
      },
      "world": {
        "lng": 118.895612080632,
        "lat": 32.2299032894952,
        "height": 11.3296200998407,
        "coordType": "WGS84"
      }
    },
    "road-4": {
      "name": "路面角点 4",
      "cornerRole": "rightTop",
      "modelLocal": {
        "x": -20.4671,
        "y": -69.9865,
        "z": 0.4337
      },
      "world": {
        "lng": 118.894375414611,
        "lat": 32.2309678150557,
        "height": 11.307420581653,
        "coordType": "WGS84"
      }
    },
    "road-3": {
      "name": "路面角点 3",
      "cornerRole": "rightBottom",
      "modelLocal": {
        "x": -20.1654,
        "y": -69.9161,
        "z": -5.4132
      },
      "world": {
        "lng": 118.894421796457,
        "lat": 32.2310026527873,
        "height": 11.4221748334675,
        "coordType": "WGS84"
      }
    },
    "road-2": {
      "name": "路面角点 2",
      "cornerRole": "leftBottom",
      "modelLocal": {
        "x": 145.8115,
        "y": -69.8727,
        "z": -6.1235
      },
      "world": {
        "lng": 118.895657798277,
        "lat": 32.2299373300182,
        "height": 11.4568866741756,
        "coordType": "WGS84"
      }
    }
  },
  "markers": [
    {
      "id": "white-marker",
      "name": "白色地标",
      "enu": [
        -80.957523,
        87.559447,
        0.039326
      ],
      "centerEnu": [
        -80.957523,
        87.559447,
        0.039326
      ],
      "sizeMeters": 0.343,
      "yawDeg": 0,
      "cornersEnu": [
        [
          -80.979154,
          87.313911,
          0.035175
        ],
        [
          -81.192828,
          87.471054,
          0.06102
        ],
        [
          -80.935776,
          87.797545,
          0.042543
        ],
        [
          -80.722332,
          87.655278,
          0.018566
        ]
      ],
      "plane": "horizontal"
    }
  ],
  "rtkSurveyDataset": {
    "siteId": "dz1207",
    "coordinateSystem": "WGS84",
    "source": "manual-import",
    "points": [
      {
        "id": "road-1",
        "name": "路面角点 1",
        "type": "model-control-point",
        "geodetic": {
          "longitude": 118.895612080632,
          "latitude": 32.2299032894952,
          "altitude": 11.3296200998407
        }
      },
      {
        "id": "road-2",
        "name": "路面角点 2",
        "type": "model-control-point",
        "geodetic": {
          "longitude": 118.895657798277,
          "latitude": 32.2299373300182,
          "altitude": 11.4568866741756
        }
      },
      {
        "id": "road-3",
        "name": "路面角点 3",
        "type": "model-control-point",
        "geodetic": {
          "longitude": 118.894421796457,
          "latitude": 32.2310026527873,
          "altitude": 11.4221748334675
        }
      },
      {
        "id": "road-4",
        "name": "路面角点 4",
        "type": "model-control-point",
        "geodetic": {
          "longitude": 118.894375414611,
          "latitude": 32.2309678150557,
          "altitude": 11.307420581653
        }
      },
      {
        "id": "white-marker-1",
        "name": "白色地标角点 1",
        "type": "marker-corner",
        "relatedTargetId": "white-marker",
        "geodetic": {
          "longitude": 118.894752939632,
          "latitude": 32.2306906712601,
          "altitude": 11.3659090095425
        }
      },
      {
        "id": "white-marker-2",
        "name": "白色地标角点 2",
        "type": "marker-corner",
        "relatedTargetId": "white-marker",
        "geodetic": {
          "longitude": 118.89475566433,
          "latitude": 32.2306937496762,
          "altitude": 11.349300920039
        }
      },
      {
        "id": "white-marker-3",
        "name": "白色地标角点 3",
        "type": "marker-corner",
        "relatedTargetId": "white-marker",
        "geodetic": {
          "longitude": 118.894753399803,
          "latitude": 32.2306950326021,
          "altitude": 11.3732823823851
        }
      },
      {
        "id": "white-marker-4",
        "name": "白色地标角点 4",
        "type": "marker-corner",
        "relatedTargetId": "white-marker",
        "geodetic": {
          "longitude": 118.894750672667,
          "latitude": 32.2306920883304,
          "altitude": 11.3917589455131
        }
      }
    ]
  },
  "attachments": [],
  "annotations": [],
  "placementAnchorEnu": [
    0,
    0,
    0
  ],
  "placementAnchorMeaning": "road-control-point-1",
  "undergroundDisplay": {
    "defaultMode": "x-ray",
    "xrayOpacity": 0.5,
    "showDepthGuideLines": true
  },
  "enclosureShell": {
    "source": "disabled"
  },
  "modelInstances": [
    {
      "id": "zu02",
      "name": "堤坝中间属性层",
      "role": "primary",
      "groundClassification": {
        "mode": "whole-model"
      },
      "display": {
        "aboveGroundMode": "hidden",
        "realWorldOcclusion": true,
        "opacity": 0.85,
        "selectable": true
      }
    }
  ]
}
